"name","lat","lon"
"Milano","45.46427","9.18951"
"Roma","41.902782","12.496365"
"Napoli","40.839981","14.252540"
"Torino","45.068371","7.683070"
"Genova","44.407059","8.933990"
"Firenze","43.769562","11.255814"
"Catania","37.507877","15.083030"
"Pisa","43.722839","10.401689"
"Bari","41.117142","16.871872"
"Palermo","38.13205","13.33561"
"Bologna","44.49381","13.33561"